[
    {
        "id": 1,
        "name": "AZE Performance",
        "link": "https://www.azeperformance.com/",
        "image": "Garages/Logos/AZE.png",
        "phone": "1(581)991-0156",
        "address": "735 Av. Pruneau, Quebec, G1M 2J9",
        "marker": "Garages/Icons/AZE.png",
        "pos": {
            "lat": 46.821726,
            "lng": -71.27592
        }
    },
    {
        "id": 2,
        "name": "Swap Shop Installed",
        "link": "https://swapshopracing.myshopify.com/",
        "image": "Garages/Logos/SwapShop.png",
        "phone": "1(450)420-0991",
        "address": "740 Bd Industriel #740, Blainville, Quebec J7C 3V4",
        "marker": "Garages/Icons/SwapShop.png",
        "pos": {
            "lat": 45.669374,
            "lng": -73.858329
        }
    },
    {
        "id": 3,
        "name": "Lachute Performance",
        "link": "https://lachuteperformance.com/",
        "image": "Garages/Logos/LachutePerformance.png",
        "phone": "1(450)562-0344",
        "address": "441 Rte Du Nord Brownsburg-Chatham, Quebec, J8G 1L5",
        "marker": "Garages/Icons/LachutePerformance.png",
        "pos": {
            "lat": 45.672476,
            "lng": -74.381371
        }
    },
    {
        "id": 4,
        "name": "DDS",
        "link": "https://mecaniquedds.com/",
        "image": "Garages/Logos/DDS.png",
        "phone": "1(418)821-0661",
        "address": "740 Bd Industriel #740, Blainville, Quebec J7C 3V4",
        "marker": "Garages/Icons/DDS.png",
        "pos": {
            "lat": 46.875608,
            "lng": -71.359554
        }
    },
    {
        "id": 5,
        "name": "Lavotek",
        "link": "https://www.lavotek.com/",
        "image": "Garages/Logos/Lavotek.png",
        "phone": "1(450)469-1616",
        "address": "2001 Rte 112 Saint-CÃ©saire, Quebec, J0L 1T0",
        "marker": "Garages/Icons/Lavotek.png",
        "pos": {
            "lat": 45.413961,
            "lng": -73.009008
        }
    },
    {
        "id": 6,
        "name": "Total Tuning",
        "link": "https://www.totaltuning.ca/",
        "image": "Garages/Logos/TotalTuning.png",
        "phone": "1(418)667-9351",
        "address": "830 Avenue Godin Suite 5 Quebec, Quebec, G1M 2X9",
        "marker": "Garages/Icons/TotalTuning.png",
        "pos": {"lat": 46.824883, "lng": -71.279970 }
    },
    {
        "id": 7,
        "name": "Freedom Shop",
        "link": "https://freedomshop.ca/",
        "image": "Garages/Logos/FreedomShop.png",
        "phone": "1(418)881-2788",
        "address": "830 Avenue Godin Suite 5 Quebec, Quebec, G1M 2X9",
        "marker": "Garages/Icons/FreedomShop.png",
        "pos": {"lat": 46.621998, "lng": -71.504382 }
    },
    {
        "id": 8,
        "name": "FJ Tech",
        "link": "https://www.fjtech.ca/",
        "image": "Garages/Logos/FJTech.svg",
        "phone": "1(844)710-3854",
        "address": "4225 Ch Robinson, Cookshire-Eaton, Quebec, J0B 1M0",
        "marker": "Garages/Icons/FjTech.png",
        "pos": {"lat": 45.362715, "lng": -71.775961 }
    },
    {
        "id": 9,
        "name": "Garage Kosmic",
        "link": "https://garage-kosmic-specialiste-subaru.business.site/",
        "image": "Garages/Logos/Kosmic.png",
        "phone": "1(450)795-0229",
        "address": "750 Bd laurier Sainte-Madeleine, Quebec, J0H 1S0",
        "marker": "Garages/Icons/Kosmic.png",
        "pos": {"lat": 45.595758, "lng": -73.093261}
    }
]